[1685299352958]$GPGLL,0000.0000,N,00000.0000,E,115953.000,V,N*4B
[1685299352958]$GPGSA,A,1,,,,,,,,,,,,,0.0,0.0,0.0*30
[1685299353958]$GPRMC,115953.000,V,0000.0000,N,00000.0000,E,000.0,000.0,280606,,,N*76
[1685299353958]$GPVTG,000.0,T,,M,000.0,N,000.0,K,N*02
[1685299353958]$GPGLL,0000.0000,N,00000.0000,E,115954.000,V,N*4C
[1685299353958]$GPGSA,A,1,,,,,,,,,,,,,0.0,0.0,0.0*30
[1685299354958]$GPRMC,115954.000,V,0000.0000,N,00000.0000,E,000.0,000.0,280606,,,N*71
[1685299354958]$GPVTG,000.0,T,,M,000.0,N,000.0,K,N*02
[1685299354958]$GPGLL,0000.0000,N,00000.0000,E,115955.000,V,N*4D
[1685299354958]$GPGSA,A,1,,,,,,,,,,,,,0.0,0.0,0.0*30
[1685299355958]$GPRMC,115955.000,V,0000.0000,N,00000.0000,E,000.0,000.0,280606,,,N*70
[1685299355958]$GPVTG,000.0,T,,M,000.0,N,000.0,K,N*02
[1685299355958]$GPGLL,0000.0000,N,00000.0000,E,115956.000,V,N*4E
[1685299355958]$GPGSA,A,1,,,,,,,,,,,,,0.0,0.0,0.0*30
[1685299356958]$GPRMC,115956.000,V,0000.0000,N,00000.0000,E,000.0,000.0,280606,,,N*73
[1685299356958]$GPVTG,000.0,T,,M,000.0,N,000.0,K,N*02
[1685299356958]$GPGLL,0000.0000,N,00000.0000,E,115957.000,V,N*4F
[1685299356958]$GPGSA,A,1,,,,,,,,,,,,,0.0,0.0,0.0*30
[1685299357958]$GPRMC,115957.000,V,0000.0000,N,00000.0000,E,000.0,000.0,280606,,,N*72
[1685299357958]$GPVTG,000.0,T,,M,000.0,N,000.0,K,N*02
[1685299357958]$GPGLL,0000.0000,N,00000.0000,E,115958.000,V,N*40
[1685299357958]$GPGSA,A,1,,,,,,,,,,,,,0.0,0.0,0.0*30
[1685299358959]$GPRMC,115958.000,V,0000.0000,N,00000.0000,E,000.0,000.0,280606,,,N*7D
[1685299358959]$GPVTG,000.0,T,,M,000.0,N,000.0,K,N*02
[1685299358959]$GPGLL,0000.0000,N,00000.0000,E,115959.000,V,N*41
[1685299358959]$GPGSA,A,1,,,,,,,,,,,,,0.0,0.0,0.0*30
[1685299359958]$GPRMC,115959.000,V,0000.0000,N,00000.0000,E,000.0,000.0,280606,,,N*7C
[1685299359958]$GPVTG,000.0,T,,M,000.0,N,000.0,K,N*02
[1685299359958]$GPGLL,0000.0000,N,00000.0000,E,120000.000,V,N*42
[1685299359958]$GPGSA,A,1,,,,,,,,,,,,,0.0,0.0,0.0*30
[1685299360959]$GPRMC,120000.000,V,0000.0000,N,00000.0000,E,000.0,000.0,280606,,,N*7F
[1685299360959]$GPVTG,000.0,T,,M,000.0,N,000.0,K,N*02
[1685299360959]$GPGLL,0000.0000,N,00000.0000,E,120001.000,V,N*43
[1685299360959]$GPGSA,A,1,,,,,,,,,,,,,0.0,0.0,0.0*30
[1685299361959]$GPRMC,120001.000,V,0000.0000,N,00000.0000,E,000.0,000.0,280606,,,N*7E
[1685299361959]$GPVTG,000.0,T,,M,000.0,N,000.0,K,N*02
[1685299361959]$GPGLL,0000.0000,N,00000.0000,E,120002.000,V,N*40
[1685299361959]$GPGSA,A,1,,,,,,,,,,,,,0.0,0.0,0.0*30
[1685299362958]$GPRMC,120002.000,V,0000.0000,N,00000.0000,E,000.0,000.0,280606,,,N*7D
[1685299362958]$GPVTG,000.0,T,,M,000.0,N,000.0,K,N*02
[1685299362958]$GPGLL,0000.0000,N,00000.0000,E,120003.000,V,N*41
[1685299362958]$GPGSA,A,1,,,,,,,,,,,,,0.0,0.0,0.0*30
[1685299363958]$GPRMC,120003.000,V,0000.0000,N,00000.0000,E,000.0,000.0,280606,,,N*7C
[1685299363958]$GPVTG,000.0,T,,M,000.0,N,000.0,K,N*02
[1685299363958]$GPGLL,0000.0000,N,00000.0000,E,120004.000,V,N*46
[1685299363958]$GPGSA,A,1,,,,,,,,,,,,,0.0,0.0,0.0*30
[1685299364958]$GPRMC,120004.000,V,0000.0000,N,00000.0000,E,000.0,000.0,280606,,,N*7B
[1685299364958]$GPVTG,000.0,T,,M,000.0,N,000.0,K,N*02
[1685299364958]$GPGLL,0000.0000,N,00000.0000,E,120005.000,V,N*47
[1685299364958]$GPGSA,A,1,,,,,,,,,,,,,0.0,0.0,0.0*30
[1685299365958]$GPRMC,120005.000,V,0000.0000,N,00000.0000,E,000.0,000.0,280606,,,N*7A
[1685299365958]$GPVTG,000.0,T,,M,000.0,N,000.0,K,N*02
[1685299365958]$GPGLL,0000.0000,N,00000.0000,E,120006.000,V,N*44
[1685299365958]$GPGSA,A,1,,,,,,,,,,,,,0.0,0.0,0.0*30
[1685299366958]$GPRMC,120006.000,V,0000.0000,N,00000.0000,E,000.0,000.0,280606,,,N*79
[1685299366958]$GPVTG,000.0,T,,M,000.0,N,000.0,K,N*02
[1685299366958]$GPGLL,0000.0000,N,00000.0000,E,120007.000,V,N*45
[1685299366958]$GPGSA,A,1,,,,,,,,,,,,,0.0,0.0,0.0*30
[1685299367958]$GPRMC,120007.000,V,0000.0000,N,00000.0000,E,000.0,000.0,280606,,,N*78
[1685299367958]$GPVTG,000.0,T,,M,000.0,N,000.0,K,N*02
[1685299367958]$GPGLL,0000.0000,N,00000.0000,E,120008.000,V,N*4A
[1685299367958]$GPGSA,A,1,,,,,,,,,,,,,0.0,0.0,0.0*30
[1685299368958]$GPRMC,120008.000,V,0000.0000,N,00000.0000,E,000.0,000.0,280606,,,N*77
[1685299368958]$GPVTG,000.0,T,,M,000.0,N,000.0,K,N*02
[1685299368958]$GPGLL,0000.0000,N,00000.0000,E,120009.000,V,N*4B
[1685299368958]$GPGSA,A,1,,,,,,,,,,,,,0.0,0.0,0.0*30
[1685299369958]$GPRMC,120009.000,V,0000.0000,N,00000.0000,E,000.0,000.0,280606,,,N*76
[1685299369958]$GPVTG,000.0,T,,M,000.0,N,000.0,K,N*02
[1685299369958]$GPGLL,0000.0000,N,00000.0000,E,120010.000,V,N*43
[1685299369958]$GPGSA,A,1,,,,,,,,,,,,,0.0,0.0,0.0*30
[1685299370958]$GPRMC,120010.000,V,0000.0000,N,00000.0000,E,000.0,000.0,280606,,,N*7E
[1685299370958]$GPVTG,000.0,T,,M,000.0,N,000.0,K,N*02
[1685299370958]$GPGLL,0000.0000,N,00000.0000,E,120011.000,V,N*42
[1685299370958]$GPGSA,A,1,,,,,,,,,,,,,0.0,0.0,0.0*30
[1685299371958]$GPRMC,120011.000,V,0000.0000,N,00000.0000,E,000.0,000.0,280606,,,N*7F
[1685299371958]$GPVTG,000.0,T,,M,000.0,N,000.0,K,N*02
[1685299371958]$GPGLL,0000.0000,N,00000.0000,E,120012.000,V,N*41
[1685299371958]$GPGSA,A,1,,,,,,,,,,,,,0.0,0.0,0.0*30
[1685299372958]$GPRMC,120012.000,V,0000.0000,N,00000.0000,E,000.0,000.0,280606,,,N*7C
[1685299372958]$GPVTG,000.0,T,,M,000.0,N,000.0,K,N*02
[1685299372958]$GPGLL,0000.0000,N,00000.0000,E,120013.000,V,N*40
[1685299372958]$GPGSA,A,1,,,,,,,,,,,,,0.0,0.0,0.0*30
[1685299373958]$GPRMC,120013.000,V,0000.0000,N,00000.0000,E,000.0,000.0,280606,,,N*7D
[1685299373958]$GPVTG,000.0,T,,M,000.0,N,000.0,K,N*02
[1685299373958]$GPGLL,0000.0000,N,00000.0000,E,120014.000,V,N*47
[1685299373958]$GPGSA,A,1,,,,,,,,,,,,,0.0,0.0,0.0*30
[1685299374958]$GPRMC,120014.000,V,0000.0000,N,00000.0000,E,000.0,000.0,280606,,,N*7A
[1685299374958]$GPVTG,000.0,T,,M,000.0,N,000.0,K,N*02
[1685299374958]$GPGLL,0000.0000,N,00000.0000,E,120015.000,V,N*46
[1685299374958]$GPGSA,A,1,,,,,,,,,,,,,0.0,0.0,0.0*30
[1685299375959]$GPRMC,120015.000,V,0000.0000,N,00000.0000,E,000.0,000.0,280606,,,N*7B
[1685299375959]$GPVTG,000.0,T,,M,000.0,N,000.0,K,N*02
[1685299375959]$GPGLL,0000.0000,N,00000.0000,E,120016.000,V,N*45
[1685299375959]$GPGSA,A,1,,,,,,,,,,,,,0.0,0.0,0.0*30
[1685299376958]$GPRMC,120016.000,V,0000.0000,N,00000.0000,E,000.0,000.0,280606,,,N*78
[1685299376958]$GPVTG,000.0,T,,M,000.0,N,000.0,K,N*02
[1685299376958]$GPGLL,0000.0000,N,00000.0000,E,120017.000,V,N*44
[1685299376958]$GPGSA,A,1,,,,,,,,,,,,,0.0,0.0,0.0*30
[1685299377958]$GPRMC,120017.000,V,0000.0000,N,00000.0000,E,000.0,000.0,280606,,,N*79
[1685299377958]$GPVTG,000.0,T,,M,000.0,N,000.0,K,N*02
[1685299377958]$GPGLL,0000.0000,N,00000.0000,E,120018.000,V,N*4B
[1685299377958]$GPGSA,A,1,,,,,,,,,,,,,0.0,0.0,0.0*30
[1685299378958]$GPRMC,120018.000,V,0000.0000,N,00000.0000,E,000.0,000.0,280606,,,N*76
[1685299378958]$GPVTG,000.0,T,,M,000.0,N,000.0,K,N*02
[1685299378958]$GPGLL,0000.0000,N,00000.0000,E,120019.000,V,N*4A
[1685299378958]$GPGSA,A,1,,,,,,,,,,,,,0.0,0.0,0.0*30
[1685299379958]$GPRMC,120019.000,V,0000.0000,N,00000.0000,E,000.0,000.0,280606,,,N*77
[1685299379958]$GPVTG,000.0,T,,M,000.0,N,000.0,K,N*02
[1685299379958]$GPGLL,0000.0000,N,00000.0000,E,120020.000,V,N*40
[1685299379958]$GPGSA,A,1,,,,,,,,,,,,,0.0,0.0,0.0*30
[1685299380958]$GPRMC,120020.000,V,0000.0000,N,00000.0000,E,000.0,000.0,280606,,,N*7D
[1685299380958]$GPVTG,000.0,T,,M,000.0,N,000.0,K,N*02
[1685299380958]$GPGLL,0000.0000,N,00000.0000,E,120021.000,V,N*41
[1685299380958]$GPGSA,A,1,,,,,,,,,,,,,0.0,0.0,0.0*30
[1685299381958]$GPRMC,120021.000,V,0000.0000,N,00000.0000,E,000.0,000.0,280606,,,N*7C
[1685299381958]$GPVTG,000.0,T,,M,000.0,N,000.0,K,N*02
[1685299381958]$GPGLL,0000.0000,N,00000.0000,E,120022.000,V,N*42
[1685299381958]$GPGSA,A,1,,,,,,,,,,,,,0.0,0.0,0.0*30
[1685299382958]$GPRMC,120022.000,V,0000.0000,N,00000.0000,E,000.0,000.0,280606,,,N*7F
[1685299382958]$GPVTG,000.0,T,,M,000.0,N,000.0,K,N*02
[1685299382958]$GPGLL,0000.0000,N,00000.0000,E,120023.000,V,N*43
[1685299382958]$GPGSA,A,1,,,,,,,,,,,,,0.0,0.0,0.0*30
[1685299383958]$GPRMC,120023.000,V,0000.0000,N,00000.0000,E,000.0,000.0,280606,,,N*7E
[1685299383958]$GPVTG,000.0,T,,M,000.0,N,000.0,K,N*02
[1685299383958]$GPGLL,0000.0000,N,00000.0000,E,120024.000,V,N*44
[1685299383958]$GPGSA,A,1,,,,,,,,,,,,,0.0,0.0,0.0*30
[1685299384958]$GPRMC,120024.000,V,0000.0000,N,00000.0000,E,000.0,000.0,280606,,,N*79
[1685299384958]$GPVTG,000.0,T,,M,000.0,N,000.0,K,N*02
[1685299384958]$GPGLL,0000.0000,N,00000.0000,E,120025.000,V,N*45
[1685299384958]$GPGSA,A,1,,,,,,,,,,,,,0.0,0.0,0.0*30
[1685299385958]$GPRMC,120025.000,V,0000.0000,N,00000.0000,E,000.0,000.0,280606,,,N*78
[1685299385958]$GPVTG,000.0,T,,M,000.0,N,000.0,K,N*02
[1685299385958]$GPGLL,0000.0000,N,00000.0000,E,120026.000,V,N*46
[1685299385958]$GPGSA,A,1,,,,,,,,,,,,,0.0,0.0,0.0*30
[1685299386958]$GPRMC,120026.000,V,0000.0000,N,00000.0000,E,000.0,000.0,280606,,,N*7B
[1685299386958]$GPVTG,000.0,T,,M,000.0,N,000.0,K,N*02
[1685299386958]$GPGLL,0000.0000,N,00000.0000,E,120027.000,V,N*47
[1685299386958]$GPGSA,A,1,,,,,,,,,,,,,0.0,0.0,0.0*30
[1685299387958]$GPRMC,120027.000,V,0000.0000,N,00000.0000,E,000.0,000.0,280606,,,N*7A
[1685299387958]$GPVTG,000.0,T,,M,000.0,N,000.0,K,N*02
[1685299387958]$GPGLL,0000.0000,N,00000.0000,E,120028.000,V,N*48
[1685299387958]$GPGSA,A,1,,,,,,,,,,,,,0.0,0.0,0.0*30
[1685299388958]$GPRMC,120028.000,V,0000.0000,N,00000.0000,E,000.0,000.0,280606,,,N*75
[1685299388958]$GPVTG,000.0,T,,M,000.0,N,000.0,K,N*02
[1685299388958]$GPGLL,0000.0000,N,00000.0000,E,120029.000,V,N*49
[1685299388958]$GPGSA,A,1,,,,,,,,,,,,,0.0,0.0,0.0*30
[1685299389958]$GPRMC,120029.000,V,0000.0000,N,00000.0000,E,000.0,000.0,280606,,,N*74
[1685299389958]$GPVTG,000.0,T,,M,000.0,N,000.0,K,N*02
[1685299389958]$GPGLL,0000.0000,N,00000.0000,E,120030.000,V,N*41
[1685299389958]$GPGSA,A,1,,,,,,,,,,,,,0.0,0.0,0.0*30
[1685299390959]$GPRMC,120030.000,V,0000.0000,N,00000.0000,E,000.0,000.0,280606,,,N*7C
[1685299390959]$GPVTG,000.0,T,,M,000.0,N,000.0,K,N*02
[1685299390959]$GPGLL,0000.0000,N,00000.0000,E,120031.000,V,N*40
[1685299390959]$GPGSA,A,1,,,,,,,,,,,,,0.0,0.0,0.0*30
[1685299391958]$GPRMC,120031.000,V,0000.0000,N,00000.0000,E,000.0,000.0,280606,,,N*7D
[1685299391958]$GPVTG,000.0,T,,M,000.0,N,000.0,K,N*02
[1685299391958]$GPGLL,0000.0000,N,00000.0000,E,120032.000,V,N*43
[1685299391958]$GPGSA,A,1,,,,,,,,,,,,,0.0,0.0,0.0*30
[1685299392958]$GPRMC,120032.000,V,0000.0000,N,00000.0000,E,000.0,000.0,280606,,,N*7E
[1685299392958]$GPVTG,000.0,T,,M,000.0,N,000.0,K,N*02
[1685299392958]$GPGLL,0000.0000,N,00000.0000,E,120033.000,V,N*42
[1685299392958]$GPGSA,A,1,,,,,,,,,,,,,0.0,0.0,0.0*30
[1685299393958]$GPRMC,120033.000,V,0000.0000,N,00000.0000,E,000.0,000.0,280606,,,N*7F
[1685299393958]$GPVTG,000.0,T,,M,000.0,N,000.0,K,N*02
[1685299393958]$GPGLL,0000.0000,N,00000.0000,E,120034.000,V,N*45
[1685299393958]$GPGSA,A,1,,,,,,,,,,,,,0.0,0.0,0.0*30
[1685299394958]$GPRMC,120034.000,V,0000.0000,N,00000.0000,E,000.0,000.0,280606,,,N*78
[1685299394958]$GPVTG,000.0,T,,M,000.0,N,000.0,K,N*02
[1685299394958]$GPGLL,0000.0000,N,00000.0000,E,120035.000,V,N*44
[1685299394958]$GPGSA,A,1,,,,,,,,,,,,,0.0,0.0,0.0*30
[1685299395958]$GPRMC,120035.000,V,0000.0000,N,00000.0000,E,000.0,000.0,280606,,,N*79
[1685299395958]$GPVTG,000.0,T,,M,000.0,N,000.0,K,N*02
[1685299395958]$GPGLL,0000.0000,N,00000.0000,E,120036.000,V,N*47
[1685299395958]$GPGSA,A,1,,,,,,,,,,,,,0.0,0.0,0.0*30
[1685299396958]$GPRMC,120036.000,V,0000.0000,N,00000.0000,E,000.0,000.0,280606,,,N*7A
[1685299396958]$GPVTG,000.0,T,,M,000.0,N,000.0,K,N*02
[1685299396958]$GPGLL,0000.0000,N,00000.0000,E,120037.000,V,N*46
[1685299396958]$GPGSA,A,1,,,,,,,,,,,,,0.0,0.0,0.0*30
[1685299397958]$GPRMC,120037.000,V,0000.0000,N,00000.0000,E,000.0,000.0,280606,,,N*7B
[1685299397958]$GPVTG,000.0,T,,M,000.0,N,000.0,K,N*02
[1685299397958]$GPGLL,0000.0000,N,00000.0000,E,120038.000,V,N*49
[1685299397958]$GPGSA,A,1,,,,,,,,,,,,,0.0,0.0,0.0*30
[1685299398958]$GPRMC,120038.000,V,0000.0000,N,00000.0000,E,000.0,000.0,280606,,,N*74
[1685299398958]$GPVTG,000.0,T,,M,000.0,N,000.0,K,N*02
[1685299398958]$GPGLL,0000.0000,N,00000.0000,E,120039.000,V,N*48
[1685299398958]$GPGSA,A,1,,,,,,,,,,,,,0.0,0.0,0.0*30
[1685299399958]$GPRMC,120039.000,V,0000.0000,N,00000.0000,E,000.0,000.0,280606,,,N*75
[1685299399958]$GPVTG,000.0,T,,M,000.0,N,000.0,K,N*02
[1685299399958]$GPGLL,0000.0000,N,00000.0000,E,120040.000,V,N*46
[1685299399958]$GPGSA,A,1,,,,,,,,,,,,,0.0,0.0,0.0*30
[1685299400958]$GPRMC,120040.000,V,0000.0000,N,00000.0000,E,000.0,000.0,280606,,,N*7B
[1685299400958]$GPVTG,000.0,T,,M,000.0,N,000.0,K,N*02
[1685299400958]$GPGLL,0000.0000,N,00000.0000,E,120041.000,V,N*47
[1685299400958]$GPGSA,A,1,,,,,,,,,,,,,0.0,0.0,0.0*30
[1685299401958]$GPRMC,120041.000,V,0000.0000,N,00000.0000,E,000.0,000.0,280606,,,N*7A
[1685299401958]$GPVTG,000.0,T,,M,000.0,N,000.0,K,N*02
[1685299401958]$GPGLL,0000.0000,N,00000.0000,E,120042.000,V,N*44
[1685299401958]$GPGSA,A,1,,,,,,,,,,,,,0.0,0.0,0.0*30
[1685299402958]$GPRMC,120042.000,V,0000.0000,N,00000.0000,E,000.0,000.0,280606,,,N*79
[1685299402958]$GPVTG,000.0,T,,M,000.0,N,000.0,K,N*02
[1685299402958]$GPGLL,0000.0000,N,00000.0000,E,120043.000,V,N*45
[1685299402958]$GPGSA,A,1,,,,,,,,,,,,,0.0,0.0,0.0*30
[1685299403958]$GPRMC,120043.000,V,0000.0000,N,00000.0000,E,000.0,000.0,280606,,,N*78
[1685299403958]$GPVTG,000.0,T,,M,000.0,N,000.0,K,N*02
[1685299403958]$GPGLL,0000.0000,N,00000.0000,E,120044.000,V,N*42
[1685299403958]$GPGSA,A,1,,,,,,,,,,,,,0.0,0.0,0.0*30
[1685299404958]$GPRMC,120044.000,V,0000.0000,N,00000.0000,E,000.0,000.0,280606,,,N*7F
[1685299404958]$GPVTG,000.0,T,,M,000.0,N,000.0,K,N*02
[1685299404958]$GPGLL,0000.0000,N,00000.0000,E,120045.000,V,N*43
[1685299404958]$GPGSA,A,1,,,,,,,,,,,,,0.0,0.0,0.0*30
[1685299405959]$GPRMC,120045.000,V,0000.0000,N,00000.0000,E,000.0,000.0,280606,,,N*7E
[1685299405959]$GPVTG,000.0,T,,M,000.0,N,000.0,K,N*02
[1685299405959]$GPGLL,0000.0000,N,00000.0000,E,120046.000,V,N*40
[1685299405959]$GPGSA,A,1,,,,,,,,,,,,,0.0,0.0,0.0*30
[1685299406958]$GPRMC,120046.000,V,0000.0000,N,00000.0000,E,000.0,000.0,280606,,,N*7D
[1685299406958]$GPVTG,000.0,T,,M,000.0,N,000.0,K,N*02
[1685299406958]$GPGLL,0000.0000,N,00000.0000,E,120047.000,V,N*41
[1685299406958]$GPGSA,A,1,,,,,,,,,,,,,0.0,0.0,0.0*30
[1685299407958]$GPRMC,120047.000,V,0000.0000,N,00000.0000,E,000.0,000.0,280606,,,N*7C
[1685299407958]$GPVTG,000.0,T,,M,000.0,N,000.0,K,N*02
[1685299407958]$GPGLL,0000.0000,N,00000.0000,E,120048.000,V,N*4E
[1685299407958]$GPGSA,A,1,,,,,,,,,,,,,0.0,0.0,0.0*30
[1685299408958]$GPRMC,120048.000,V,0000.0000,N,00000.0000,E,000.0,000.0,280606,,,N*73
[1685299408958]$GPVTG,000.0,T,,M,000.0,N,000.0,K,N*02
[1685299408958]$GPGLL,0000.0000,N,00000.0000,E,120049.000,V,N*4F
[1685299408958]$GPGSA,A,1,,,,,,,,,,,,,0.0,0.0,0.0*30
[1685299409958]$GPRMC,120049.000,V,0000.0000,N,00000.0000,E,000.0,000.0,280606,,,N*72
[1685299409958]$GPVTG,000.0,T,,M,000.0,N,000.0,K,N*02
[1685299409958]$GPGLL,0000.0000,N,00000.0000,E,120050.000,V,N*47
[1685299409958]$GPGSA,A,1,,,,,,,,,,,,,0.0,0.0,0.0*30
[1685299410958]$GPRMC,120050.000,V,0000.0000,N,00000.0000,E,000.0,000.0,280606,,,N*7A
[1685299410958]$GPVTG,000.0,T,,M,000.0,N,000.0,K,N*02
[1685299410958]$GPGLL,0000.0000,N,00000.0000,E,120051.000,V,N*46
[1685299410958]$GPGSA,A,1,,,,,,,,,,,,,0.0,0.0,0.0*30
[1685299411958]$GPRMC,120051.000,V,0000.0000,N,00000.0000,E,000.0,000.0,280606,,,N*7B
[1685299411958]$GPVTG,000.0,T,,M,000.0,N,000.0,K,N*02
[1685299411958]$GPGLL,0000.0000,N,00000.0000,E,120052.000,V,N*45
[1685299411958]$GPGSA,A,1,,,,,,,,,,,,,0.0,0.0,0.0*30
[1685299412958]$GPRMC,120052.000,V,0000.0000,N,00000.0000,E,000.0,000.0,280606,,,N*78
[1685299412958]$GPVTG,000.0,T,,M,000.0,N,000.0,K,N*02
[1685299412958]$GPGLL,0000.0000,N,00000.0000,E,120053.000,V,N*44
[1685299412958]$GPGSA,A,1,,,,,,,,,,,,,0.0,0.0,0.0*30
[1685299413958]$GPRMC,120053.000,V,0000.0000,N,00000.0000,E,000.0,000.0,280606,,,N*79
[1685299413958]$GPVTG,000.0,T,,M,000.0,N,000.0,K,N*02
[1685299413958]$GPGLL,0000.0000,N,00000.0000,E,120054.000,V,N*43
[1685299413958]$GPGSA,A,1,,,,,,,,,,,,,0.0,0.0,0.0*30
[1685299414958]$GPRMC,120054.000,V,0000.0000,N,00000.0000,E,000.0,000.0,280606,,,N*7E
[1685299414958]$GPVTG,000.0,T,,M,000.0,N,000.0,K,N*02
[1685299414958]$GPGLL,0000.0000,N,00000.0000,E,120055.000,V,N*42
[1685299414958]$GPGSA,A,1,,,,,,,,,,,,,0.0,0.0,0.0*30
[1685299415958]$GPRMC,120055.000,V,0000.0000,N,00000.0000,E,000.0,000.0,280606,,,N*7F
[1685299415958]$GPVTG,000.0,T,,M,000.0,N,000.0,K,N*02
[1685299415958]$GPGLL,0000.0000,N,00000.0000,E,120056.000,V,N*41
[1685299415958]$GPGSA,A,1,,,,,,,,,,,,,0.0,0.0,0.0*30
[1685299416958]$GPRMC,120056.000,V,0000.0000,N,00000.0000,E,000.0,000.0,280606,,,N*7C
[1685299416958]$GPVTG,000.0,T,,M,000.0,N,000.0,K,N*02
[1685299416958]$GPGLL,0000.0000,N,00000.0000,E,120057.000,V,N*40
[1685299416958]$GPGSA,A,1,,,,,,,,,,,,,0.0,0.0,0.0*30
[1685299417958]$GPRMC,120057.000,V,0000.0000,N,00000.0000,E,000.0,000.0,280606,,,N*7D
[1685299417958]$GPVTG,000.0,T,,M,000.0,N,000.0,K,N*02
[1685299417958]$GPGLL,0000.0000,N,00000.0000,E,120058.000,V,N*4F
[1685299417958]$GPGSA,A,1,,,,,,,,,,,,,0.0,0.0,0.0*30
[1685299418958]$GPRMC,120058.000,V,0000.0000,N,00000.0000,E,000.0,000.0,280606,,,N*72
[1685299418958]$GPVTG,000.0,T,,M,000.0,N,000.0,K,N*02
[1685299418958]$GPGLL,0000.0000,N,00000.0000,E,120059.000,V,N*4E
[1685299418958]$GPGSA,A,1,,,,,,,,,,,,,0.0,0.0,0.0*30
[1685299419958]$GPRMC,120059.000,V,0000.0000,N,00000.0000,E,000.0,000.0,280606,,,N*73
[1685299419958]$GPVTG,000.0,T,,M,000.0,N,000.0,K,N*02
[1685299419958]$GPGLL,0000.0000,N,00000.0000,E,120100.000,V,N*43
[1685299419958]$GPGSA,A,1,,,,,,,,,,,,,0.0,0.0,0.0*30
[1685299420959]$GPRMC,120100.000,V,0000.0000,N,00000.0000,E,000.0,000.0,280606,,,N*7E
[1685299420959]$GPVTG,000.0,T,,M,000.0,N,000.0,K,N*02
[1685299420959]$GPGLL,0000.0000,N,00000.0000,E,120101.000,V,N*42
[1685299420959]$GPGSA,A,1,,,,,,,,,,,,,0.0,0.0,0.0*30
[1685299421958]$GPRMC,120101.000,V,0000.0000,N,00000.0000,E,000.0,000.0,280606,,,N*7F
[1685299421958]$GPVTG,000.0,T,,M,000.0,N,000.0,K,N*02
[1685299421958]$GPGLL,0000.0000,N,00000.0000,E,120102.000,V,N*41
[1685299421958]$GPGSA,A,1,,,,,,,,,,,,,0.0,0.0,0.0*30
[1685299422958]$GPRMC,120102.000,V,0000.0000,N,00000.0000,E,000.0,000.0,280606,,,N*7C
[1685299422958]$GPVTG,000.0,T,,M,000.0,N,000.0,K,N*02
[1685299422958]$GPGLL,0000.0000,N,00000.0000,E,120103.000,V,N*40
[1685299422958]$GPGSA,A,1,,,,,,,,,,,,,0.0,0.0,0.0*30
[1685299423958]$GPRMC,120103.000,V,0000.0000,N,00000.0000,E,000.0,000.0,280606,,,N*7D
[1685299423958]$GPVTG,000.0,T,,M,000.0,N,000.0,K,N*02
[1685299423958]$GPGLL,0000.0000,N,00000.0000,E,120104.000,V,N*47
[1685299423958]$GPGSA,A,1,,,,,,,,,,,,,0.0,0.0,0.0*30
[1685299424959]$GPRMC,120104.000,V,0000.0000,N,00000.0000,E,000.0,000.0,280606,,,N*7A
[1685299424959]$GPVTG,000.0,T,,M,000.0,N,000.0,K,N*02
[1685299424959]$GPGLL,0000.0000,N,00000.0000,E,120105.000,V,N*46
[1685299424959]$GPGSA,A,1,,,,,,,,,,,,,0.0,0.0,0.0*30
[1685299425959]$GPRMC,120105.000,V,0000.0000,N,00000.0000,E,000.0,000.0,280606,,,N*7B
[1685299425959]$GPVTG,000.0,T,,M,000.0,N,000.0,K,N*02
[1685299425959]$GPGLL,0000.0000,N,00000.0000,E,120106.000,V,N*45
[1685299425959]$GPGSA,A,1,,,,,,,,,,,,,0.0,0.0,0.0*30
[1685299426993]$GPRMC,120106.000,V,0000.0000,N,00000.0000,E,000.0,000.0,280606,,,N*78
[1685299426993]$GPVTG,000.0,T,,M,000.0,N,000.0,K,N*02
[1685299426993]$GPGLL,0000.0000,N,00000.0000,E,120107.000,V,N*44
[1685299426993]$GPGSA,A,1,,,,,,,,,,,,,0.0,0.0,0.0*30
[1685299426993]$GPGSV,1,1,01,23,00,000,29*42
[1685299427959]$GPRMC,120107.000,V,0000.0000,N,00000.0000,E,000.0,000.0,280606,,,N*79
[1685299427959]$GPVTG,000.0,T,,M,000.0,N,000.0,K,N*02
[1685299427959]$GPGLL,0000.0000,N,00000.0000,E,120108.000,V,N*4B
[1685299427959]$GPGSA,A,1,,,,,,,,,,,,,0.0,0.0,0.0*30
[1685299428959]$GPRMC,120108.000,V,0000.0000,N,00000.0000,E,000.0,000.0,280606,,,N*76
[1685299428959]$GPVTG,000.0,T,,M,000.0,N,000.0,K,N*02
[1685299428959]$GPGLL,0000.0000,N,00000.0000,E,120109.000,V,N*4A
[1685299428959]$GPGSA,A,1,,,,,,,,,,,,,0.0,0.0,0.0*30
[1685299429992]$GPRMC,120109.000,V,0000.0000,N,00000.0000,E,000.0,000.0,280606,,,N*77
[1685299429992]$GPVTG,000.0,T,,M,000.0,N,000.0,K,N*02
[1685299429992]$GPGLL,0000.0000,N,00000.0000,E,120110.000,V,N*42
[1685299429992]$GPGSA,A,1,,,,,,,,,,,,,0.0,0.0,0.0*30
[1685299429992]$GPGSV,1,1,01,23,00,000,29*42
[1685299430959]$GPRMC,120110.000,V,0000.0000,N,00000.0000,E,000.0,000.0,280606,,,N*7F
[1685299430959]$GPVTG,000.0,T,,M,000.0,N,000.0,K,N*02
[1685299430959]$GPGLL,0000.0000,N,00000.0000,E,120111.000,V,N*43
[1685299430959]$GPGSA,A,1,,,,,,,,,,,,,0.0,0.0,0.0*30
[1685299431959]$GPRMC,120111.000,V,0000.0000,N,00000.0000,E,000.0,000.0,280606,,,N*7E
[1685299431959]$GPVTG,000.0,T,,M,000.0,N,000.0,K,N*02
[1685299431959]$GPGLL,0000.0000,N,00000.0000,E,120112.000,V,N*40
[1685299431959]$GPGSA,A,1,,,,,,,,,,,,,0.0,0.0,0.0*30
[1685299432992]$GPRMC,120112.000,V,0000.0000,N,00000.0000,E,000.0,000.0,280606,,,N*7D
[1685299432992]$GPVTG,000.0,T,,M,000.0,N,000.0,K,N*02
[1685299432992]$GPGLL,0000.0000,N,00000.0000,E,120113.000,V,N*41
[1685299432992]$GPGSA,A,1,,,,,,,,,,,,,0.0,0.0,0.0*30
[1685299432992]$GPGSV,1,1,01,23,00,000,30*4A
[1685299433959]$GPRMC,120113.000,V,0000.0000,N,00000.0000,E,000.0,000.0,280606,,,N*7C
[1685299433959]$GPVTG,000.0,T,,M,000.0,N,000.0,K,N*02
[1685299433959]$GPGLL,0000.0000,N,00000.0000,E,120114.000,V,N*46
[1685299433959]$GPGSA,A,1,,,,,,,,,,,,,0.0,0.0,0.0*30
[1685299434960]$GPRMC,120114.000,V,0000.0000,N,00000.0000,E,000.0,000.0,280606,,,N*7B
[1685299434960]$GPVTG,000.0,T,,M,000.0,N,000.0,K,N*02
[1685299434960]$GPGLL,0000.0000,N,00000.0000,E,234350.000,V,N*42
[1685299434960]$GPGSA,A,1,,,,,,,,,,,,,0.0,0.0,0.0*30
[1685299435994]$GPRMC,234350.000,V,0000.0000,N,00000.0000,E,000.0,000.0,280523,,,N*7B
[1685299435994]$GPVTG,000.0,T,,M,000.0,N,000.0,K,N*02
[1685299435994]$GPGLL,0000.0000,N,00000.0000,E,234351.000,V,N*43
[1685299435994]$GPGSA,A,1,,,,,,,,,,,,,0.0,0.0,0.0*30
[1685299435994]$GPGSV,1,1,01,23,00,000,25*4E
[1685299436960]$GPRMC,234351.000,V,0000.0000,N,00000.0000,E,000.0,000.0,280523,,,N*7A
[1685299436960]$GPVTG,000.0,T,,M,000.0,N,000.0,K,N*02
[1685299436960]$GPGLL,0000.0000,N,00000.0000,E,234352.000,V,N*40
[1685299436960]$GPGSA,A,1,,,,,,,,,,,,,0.0,0.0,0.0*30
[1685299437960]$GPRMC,234352.000,V,0000.0000,N,00000.0000,E,000.0,000.0,280523,,,N*79
[1685299437960]$GPVTG,000.0,T,,M,000.0,N,000.0,K,N*02
[1685299437960]$GPGLL,0000.0000,N,00000.0000,E,234353.000,V,N*41
[1685299437960]$GPGSA,A,1,,,,,,,,,,,,,0.0,0.0,0.0*30
[1685299438993]$GPRMC,234353.000,V,0000.0000,N,00000.0000,E,000.0,000.0,280523,,,N*78
[1685299438993]$GPVTG,000.0,T,,M,000.0,N,000.0,K,N*02
[1685299438993]$GPGLL,0000.0000,N,00000.0000,E,234354.000,V,N*46
[1685299438993]$GPGSA,A,1,,,,,,,,,,,,,0.0,0.0,0.0*30
[1685299438993]$GPGSV,1,1,01,23,00,000,25*4E
[1685299439960]$GPRMC,234354.000,V,0000.0000,N,00000.0000,E,000.0,000.0,280523,,,N*7F
[1685299439960]$GPVTG,000.0,T,,M,000.0,N,000.0,K,N*02
[1685299439960]$GPGLL,0000.0000,N,00000.0000,E,234355.000,V,N*47
[1685299439960]$GPGSA,A,1,,,,,,,,,,,,,0.0,0.0,0.0*30
[1685299440960]$GPRMC,234355.000,V,0000.0000,N,00000.0000,E,000.0,000.0,280523,,,N*7E
[1685299440960]$GPVTG,000.0,T,,M,000.0,N,000.0,K,N*02
[1685299440960]$GPGLL,0000.0000,N,00000.0000,E,234356.000,V,N*44
[1685299440960]$GPGSA,A,1,,,,,,,,,,,,,0.0,0.0,0.0*30
[1685299441994]$GPRMC,234356.000,V,0000.0000,N,00000.0000,E,000.0,000.0,280523,,,N*7D
[1685299441994]$GPVTG,000.0,T,,M,000.0,N,000.0,K,N*02
[1685299441994]$GPGLL,0000.0000,N,00000.0000,E,234357.000,V,N*45
[1685299441994]$GPGSA,A,1,,,,,,,,,,,,,0.0,0.0,0.0*30
[1685299441994]$GPGSV,1,1,01,23,00,000,25*4E
[1685299442960]$GPRMC,234357.000,V,0000.0000,N,00000.0000,E,000.0,000.0,280523,,,N*7C
[1685299442960]$GPVTG,000.0,T,,M,000.0,N,000.0,K,N*02
[1685299442960]$GPGLL,0000.0000,N,00000.0000,E,234358.000,V,N*4A
[1685299442960]$GPGSA,A,1,,,,,,,,,,,,,0.0,0.0,0.0*30
[1685299443960]$GPRMC,234358.000,V,0000.0000,N,00000.0000,E,000.0,000.0,280523,,,N*73
[1685299443960]$GPVTG,000.0,T,,M,000.0,N,000.0,K,N*02
[1685299443960]$GPGLL,0000.0000,N,00000.0000,E,234359.000,V,N*4B
[1685299443960]$GPGSA,A,1,,,,,,,,,,,,,0.0,0.0,0.0*30
[1685299444994]$GPRMC,234359.000,V,0000.0000,N,00000.0000,E,000.0,000.0,280523,,,N*72
[1685299444994]$GPVTG,000.0,T,,M,000.0,N,000.0,K,N*02
[1685299444994]$GPGLL,0000.0000,N,00000.0000,E,234400.000,V,N*40
[1685299444994]$GPGSA,A,1,,,,,,,,,,,,,0.0,0.0,0.0*30
[1685299444994]$GPGSV,1,1,01,23,00,000,28*43
[1685299445960]$GPRMC,234400.000,V,0000.0000,N,00000.0000,E,000.0,000.0,280523,,,N*79
[1685299445960]$GPVTG,000.0,T,,M,000.0,N,000.0,K,N*02
[1685299445960]$GPGLL,0000.0000,N,00000.0000,E,234401.000,V,N*41
[1685299445960]$GPGSA,A,1,,,,,,,,,,,,,0.0,0.0,0.0*30
[1685299446960]$GPRMC,234401.000,V,0000.0000,N,00000.0000,E,000.0,000.0,280523,,,N*78
[1685299446960]$GPVTG,000.0,T,,M,000.0,N,000.0,K,N*02
[1685299446960]$GPGLL,0000.0000,N,00000.0000,E,234402.000,V,N*42
[1685299446960]$GPGSA,A,1,,,,,,,,,,,,,0.0,0.0,0.0*30
[1685299447994]$GPRMC,234402.000,V,0000.0000,N,00000.0000,E,000.0,000.0,280523,,,N*7B
[1685299447994]$GPVTG,000.0,T,,M,000.0,N,000.0,K,N*02
[1685299447994]$GPGLL,0000.0000,N,00000.0000,E,234403.000,V,N*43
[1685299447994]$GPGSA,A,1,,,,,,,,,,,,,0.0,0.0,0.0*30
[1685299447994]$GPGSV,1,1,01,23,00,000,30*4A
[1685299448960]$GPRMC,234403.000,V,0000.0000,N,00000.0000,E,000.0,000.0,280523,,,N*7A
[1685299448960]$GPVTG,000.0,T,,M,000.0,N,000.0,K,N*02
[1685299448960]$GPGLL,0000.0000,N,00000.0000,E,234404.000,V,N*44
[1685299448960]$GPGSA,A,1,,,,,,,,,,,,,0.0,0.0,0.0*30
[1685299449960]$GPRMC,234404.000,V,0000.0000,N,00000.0000,E,000.0,000.0,280523,,,N*7D
[1685299449960]$GPVTG,000.0,T,,M,000.0,N,000.0,K,N*02
[1685299449960]$GPGLL,0000.0000,N,00000.0000,E,234405.000,V,N*45
[1685299449960]$GPGSA,A,1,,,,,,,,,,,,,0.0,0.0,0.0*30
[1685299450994]$GPRMC,234405.000,V,0000.0000,N,00000.0000,E,000.0,000.0,280523,,,N*7C
[1685299450994]$GPVTG,000.0,T,,M,000.0,N,000.0,K,N*02
[1685299450994]$GPGLL,0000.0000,N,00000.0000,E,234406.000,V,N*46
[1685299450994]$GPGSA,A,1,,,,,,,,,,,,,0.0,0.0,0.0*30
[1685299450994]$GPGSV,1,1,01,23,00,000,25*4E
[1685299451961]$GPRMC,234406.000,V,0000.0000,N,00000.0000,E,000.0,000.0,280523,,,N*7F
[1685299451961]$GPVTG,000.0,T,,M,000.0,N,000.0,K,N*02
[1685299451961]$GPGLL,0000.0000,N,00000.0000,E,234407.000,V,N*47
[1685299451961]$GPGSA,A,1,,,,,,,,,,,,,0.0,0.0,0.0*30
[1685299452960]$GPRMC,234407.000,V,0000.0000,N,00000.0000,E,000.0,000.0,280523,,,N*7E
[1685299452960]$GPVTG,000.0,T,,M,000.0,N,000.0,K,N*02
[1685299452960]$GPGLL,0000.0000,N,00000.0000,E,234408.000,V,N*48
[1685299452960]$GPGSA,A,1,,,,,,,,,,,,,0.0,0.0,0.0*30
[1685299453994]$GPRMC,234408.000,V,0000.0000,N,00000.0000,E,000.0,000.0,280523,,,N*71
[1685299453994]$GPVTG,000.0,T,,M,000.0,N,000.0,K,N*02
[1685299453994]$GPGLL,0000.0000,N,00000.0000,E,234409.000,V,N*49
[1685299453994]$GPGSA,A,1,,,,,,,,,,,,,0.0,0.0,0.0*30
[1685299453994]$GPGSV,1,1,01,23,00,000,25*4E
[1685299454960]$GPRMC,234409.000,V,0000.0000,N,00000.0000,E,000.0,000.0,280523,,,N*70
[1685299454960]$GPVTG,000.0,T,,M,000.0,N,000.0,K,N*02
[1685299454960]$GPGLL,0000.0000,N,00000.0000,E,234410.000,V,N*41
[1685299454960]$GPGSA,A,1,,,,,,,,,,,,,0.0,0.0,0.0*30
[1685299455960]$GPRMC,234410.000,V,0000.0000,N,00000.0000,E,000.0,000.0,280523,,,N*78
[1685299455960]$GPVTG,000.0,T,,M,000.0,N,000.0,K,N*02
[1685299455960]$GPGLL,0000.0000,N,00000.0000,E,234411.000,V,N*40
[1685299455960]$GPGSA,A,1,,,,,,,,,,,,,0.0,0.0,0.0*30
[1685299456994]$GPRMC,234411.000,V,0000.0000,N,00000.0000,E,000.0,000.0,280523,,,N*79
[1685299456994]$GPVTG,000.0,T,,M,000.0,N,000.0,K,N*02
[1685299456994]$GPGLL,0000.0000,N,00000.0000,E,234412.000,V,N*43
[1685299456994]$GPGSA,A,1,,,,,,,,,,,,,0.0,0.0,0.0*30
[1685299456994]$GPGSV,1,1,02,23,00,000,24,10,00,000,30*7E
[1685299457961]$GPRMC,234412.000,V,0000.0000,N,00000.0000,E,000.0,000.0,280523,,,N*7A
[1685299457961]$GPVTG,000.0,T,,M,000.0,N,000.0,K,N*02
[1685299457961]$GPGLL,0000.0000,N,00000.0000,E,234413.000,V,N*42
[1685299457961]$GPGSA,A,1,,,,,,,,,,,,,0.0,0.0,0.0*30
[1685299458961]$GPRMC,234413.000,V,0000.0000,N,00000.0000,E,000.0,000.0,280523,,,N*7B
[1685299458961]$GPVTG,000.0,T,,M,000.0,N,000.0,K,N*02
[1685299458961]$GPGLL,0000.0000,N,00000.0000,E,234414.000,V,N*45
[1685299458961]$GPGSA,A,1,,,,,,,,,,,,,0.0,0.0,0.0*30
[1685299459994]$GPRMC,234414.000,V,0000.0000,N,00000.0000,E,000.0,000.0,280523,,,N*7C
[1685299459994]$GPVTG,000.0,T,,M,000.0,N,000.0,K,N*02
[1685299459994]$GPGLL,0000.0000,N,00000.0000,E,234415.000,V,N*44
[1685299459994]$GPGSA,A,1,,,,,,,,,,,,,0.0,0.0,0.0*30
[1685299459994]$GPGSV,1,1,02,23,00,000,26,10,00,000,30*7C
[1685299460962]$GPRMC,234415.000,V,0000.0000,N,00000.0000,E,000.0,000.0,280523,,,N*7D
[1685299460962]$GPVTG,000.0,T,,M,000.0,N,000.0,K,N*02
[1685299460962]$GPGLL,0000.0000,N,00000.0000,E,234416.000,V,N*47
[1685299460962]$GPGSA,A,1,,,,,,,,,,,,,0.0,0.0,0.0*30
[1685299461962]$GPRMC,234416.000,V,0000.0000,N,00000.0000,E,000.0,000.0,280523,,,N*7E
[1685299461962]$GPVTG,000.0,T,,M,000.0,N,000.0,K,N*02
[1685299461962]$GPGLL,0000.0000,N,00000.0000,E,234417.000,V,N*46
[1685299461962]$GPGSA,A,1,,,,,,,,,,,,,0.0,0.0,0.0*30
[1685299463029]$GPRMC,234417.000,V,0000.0000,N,00000.0000,E,000.0,000.0,280523,,,N*7F
[1685299463029]$GPVTG,000.0,T,,M,000.0,N,000.0,K,N*02
[1685299463029]$GPGLL,0000.0000,N,00000.0000,E,234418.000,V,N*49
[1685299463029]$GPGSA,A,1,,,,,,,,,,,,,0.0,0.0,0.0*30
[1685299463029]$GPGSV,1,1,03,15,00,000,28,23,00,000,27,10,00,000,30*42
[1685299463962]$GPRMC,234418.000,V,0000.0000,N,00000.0000,E,000.0,000.0,280523,,,N*70
[1685299463962]$GPVTG,000.0,T,,M,000.0,N,000.0,K,N*02
[1685299463962]$GPGLL,0000.0000,N,00000.0000,E,234419.000,V,N*48
[1685299463962]$GPGSA,A,1,,,,,,,,,,,,,0.0,0.0,0.0*30
[1685299464962]$GPRMC,234419.000,V,0000.0000,N,00000.0000,E,000.0,000.0,280523,,,N*71
[1685299464962]$GPVTG,000.0,T,,M,000.0,N,000.0,K,N*02
[1685299464962]$GPGLL,0000.0000,N,00000.0000,E,234420.000,V,N*42
[1685299464962]$GPGSA,A,1,,,,,,,,,,,,,0.0,0.0,0.0*30
[1685299466033]$GPRMC,234420.000,V,0000.0000,N,00000.0000,E,000.0,000.0,280523,,,N*7B
[1685299466033]$GPVTG,000.0,T,,M,000.0,N,000.0,K,N*02
[1685299466033]$GPGLL,0000.0000,N,00000.0000,E,234421.000,V,N*43
[1685299466033]$GPGSA,A,1,,,,,,,,,,,,,0.0,0.0,0.0*30
[1685299466033]$GPGSV,1,1,03,15,00,000,29,23,00,000,26,10,00,000,30*42
[1685299466963]$GPRMC,234421.000,V,0000.0000,N,00000.0000,E,000.0,000.0,280523,,,N*7A
[1685299466963]$GPVTG,000.0,T,,M,000.0,N,000.0,K,N*02
[1685299466963]$GPGLL,0000.0000,N,00000.0000,E,234422.000,V,N*40
[1685299466963]$GPGSA,A,1,,,,,,,,,,,,,0.0,0.0,0.0*30
[1685299467963]$GPRMC,234422.000,V,0000.0000,N,00000.0000,E,000.0,000.0,280523,,,N*79
[1685299467963]$GPVTG,000.0,T,,M,000.0,N,000.0,K,N*02
[1685299467963]$GPGLL,0000.0000,N,00000.0000,E,234423.000,V,N*41
[1685299467963]$GPGSA,A,1,,,,,,,,,,,,,0.0,0.0,0.0*30
[1685299469029]$GPRMC,234423.000,V,0000.0000,N,00000.0000,E,000.0,000.0,280523,,,N*78
[1685299469029]$GPVTG,000.0,T,,M,000.0,N,000.0,K,N*02
[1685299469029]$GPGLL,0000.0000,N,00000.0000,E,234424.000,V,N*46
[1685299469029]$GPGSA,A,1,,,,,,,,,,,,,0.0,0.0,0.0*30
[1685299469029]$GPGSV,1,1,03,15,00,000,29,23,00,000,26,10,00,000,30*42
[1685299469962]$GPRMC,234424.000,V,0000.0000,N,00000.0000,E,000.0,000.0,280523,,,N*7F
[1685299469962]$GPVTG,000.0,T,,M,000.0,N,000.0,K,N*02
[1685299469962]$GPGLL,0000.0000,N,00000.0000,E,234425.000,V,N*47
[1685299469962]$GPGSA,A,1,,,,,,,,,,,,,0.0,0.0,0.0*30
[1685299470963]$GPRMC,234425.000,V,0000.0000,N,00000.0000,E,000.0,000.0,280523,,,N*7E
[1685299470963]$GPVTG,000.0,T,,M,000.0,N,000.0,K,N*02
[1685299470963]$GPGLL,0000.0000,N,00000.0000,E,234426.000,V,N*44
[1685299470963]$GPGSA,A,1,,,,,,,,,,,,,0.0,0.0,0.0*30
[1685299472029]$GPRMC,234426.000,V,0000.0000,N,00000.0000,E,000.0,000.0,280523,,,N*7D
[1685299472029]$GPVTG,000.0,T,,M,000.0,N,000.0,K,N*02
[1685299472029]$GPGLL,0000.0000,N,00000.0000,E,234427.000,V,N*45
[1685299472029]$GPGSA,A,1,,,,,,,,,,,,,0.0,0.0,0.0*30
[1685299472029]$GPGSV,1,1,03,15,00,000,29,23,00,000,26,10,00,000,31*43
[1685299472962]$GPRMC,234427.000,V,0000.0000,N,00000.0000,E,000.0,000.0,280523,,,N*7C
[1685299472962]$GPVTG,000.0,T,,M,000.0,N,000.0,K,N*02
[1685299472962]$GPGLL,0000.0000,N,00000.0000,E,234428.000,V,N*4A
[1685299472962]$GPGSA,A,1,,,,,,,,,,,,,0.0,0.0,0.0*30
[1685299473962]$GPRMC,234428.000,V,0000.0000,N,00000.0000,E,000.0,000.0,280523,,,N*73
[1685299473962]$GPVTG,000.0,T,,M,000.0,N,000.0,K,N*02
[1685299473962]$GPGLL,0000.0000,N,00000.0000,E,234429.000,V,N*4B
[1685299473962]$GPGSA,A,1,,,,,,,,,,,,,0.0,0.0,0.0*30
[1685299475029]$GPRMC,234429.000,V,0000.0000,N,00000.0000,E,000.0,000.0,280523,,,N*72
[1685299475029]$GPVTG,000.0,T,,M,000.0,N,000.0,K,N*02
[1685299475029]$GPGLL,0000.0000,N,00000.0000,E,234430.000,V,N*43
[1685299475029]$GPGSA,A,1,,,,,,,,,,,,,0.0,0.0,0.0*30
[1685299475029]$GPGSV,1,1,03,15,00,000,29,23,00,000,26,10,00,000,31*43
[1685299475962]$GPRMC,234430.000,V,0000.0000,N,00000.0000,E,000.0,000.0,280523,,,N*7A
[1685299475962]$GPVTG,000.0,T,,M,000.0,N,000.0,K,N*02
[1685299475962]$GPGLL,0000.0000,N,00000.0000,E,234431.000,V,N*42
[1685299475962]$GPGSA,A,1,,,,,,,,,,,,,0.0,0.0,0.0*30
[1685299476963]$GPRMC,234431.000,V,0000.0000,N,00000.0000,E,000.0,000.0,280523,,,N*7B
[1685299476963]$GPVTG,000.0,T,,M,000.0,N,000.0,K,N*02
[1685299476963]$GPGLL,0000.0000,N,00000.0000,E,234432.000,V,N*41
[1685299476963]$GPGSA,A,1,,,,,,,,,,,,,0.0,0.0,0.0*30
[1685299478029]$GPRMC,234432.000,V,0000.0000,N,00000.0000,E,000.0,000.0,280523,,,N*78
[1685299478029]$GPVTG,000.0,T,,M,000.0,N,000.0,K,N*02
[1685299478029]$GPGLL,0000.0000,N,00000.0000,E,234433.000,V,N*40
[1685299478029]$GPGSA,A,1,,,,,,,,,,,,,0.0,0.0,0.0*30
[1685299478029]$GPGSV,1,1,03,15,00,000,29,23,00,000,27,10,00,000,30*43
[1685299478962]$GPRMC,234433.000,V,0000.0000,N,00000.0000,E,000.0,000.0,280523,,,N*79
[1685299478962]$GPVTG,000.0,T,,M,000.0,N,000.0,K,N*02
[1685299478962]$GPGLL,0000.0000,N,00000.0000,E,234434.000,V,N*47
[1685299478962]$GPGSA,A,1,,,,,,,,,,,,,0.0,0.0,0.0*30
[1685299479962]$GPRMC,234434.000,V,0000.0000,N,00000.0000,E,000.0,000.0,280523,,,N*7E
[1685299479962]$GPVTG,000.0,T,,M,000.0,N,000.0,K,N*02
[1685299479962]$GPGLL,0000.0000,N,00000.0000,E,234435.000,V,N*46
[1685299479962]$GPGSA,A,1,,,,,,,,,,,,,0.0,0.0,0.0*30
[1685299481029]$GPRMC,234435.000,V,0000.0000,N,00000.0000,E,000.0,000.0,280523,,,N*7F
[1685299481029]$GPVTG,000.0,T,,M,000.0,N,000.0,K,N*02
[1685299481029]$GPGLL,0000.0000,N,00000.0000,E,234436.000,V,N*45
[1685299481029]$GPGSA,A,1,,,,,,,,,,,,,0.0,0.0,0.0*30
[1685299481029]$GPGSV,1,1,03,15,00,000,29,23,00,000,27,10,00,000,30*43
[1685299481962]$GPRMC,234436.000,V,0000.0000,N,00000.0000,E,000.0,000.0,280523,,,N*7C
[1685299481962]$GPVTG,000.0,T,,M,000.0,N,000.0,K,N*02
[1685299481962]$GPGLL,0000.0000,N,00000.0000,E,234437.000,V,N*44
[1685299481962]$GPGSA,A,1,,,,,,,,,,,,,0.0,0.0,0.0*30
[1685299482962]$GPRMC,234437.000,V,0000.0000,N,00000.0000,E,000.0,000.0,280523,,,N*7D
[1685299482962]$GPVTG,000.0,T,,M,000.0,N,000.0,K,N*02
[1685299482962]$GPGLL,0000.0000,N,00000.0000,E,234438.000,V,N*4B
[1685299482962]$GPGSA,A,1,,,,,,,,,,,,,0.0,0.0,0.0*30
[1685299484029]$GPRMC,234438.000,V,0000.0000,N,00000.0000,E,000.0,000.0,280523,,,N*72
[1685299484029]$GPVTG,000.0,T,,M,000.0,N,000.0,K,N*02
[1685299484029]$GPGLL,0000.0000,N,00000.0000,E,234439.000,V,N*4A
[1685299484029]$GPGSA,A,1,,,,,,,,,,,,,0.0,0.0,0.0*30
[1685299484029]$GPGSV,1,1,03,15,00,000,29,23,00,000,27,10,00,000,31*42
[1685299484962]$GPRMC,234439.000,V,0000.0000,N,00000.0000,E,000.0,000.0,280523,,,N*73
[1685299484962]$GPVTG,000.0,T,,M,000.0,N,000.0,K,N*02
[1685299484962]$GPGLL,0000.0000,N,00000.0000,E,234440.000,V,N*44
[1685299484962]$GPGSA,A,1,,,,,,,,,,,,,0.0,0.0,0.0*30
[1685299485962]$GPRMC,234440.000,V,0000.0000,N,00000.0000,E,000.0,000.0,280523,,,N*7D
[1685299485962]$GPVTG,000.0,T,,M,000.0,N,000.0,K,N*02
[1685299485962]$GPGLL,0000.0000,N,00000.0000,E,234441.000,V,N*45
[1685299485962]$GPGSA,A,1,,,,,,,,,,,,,0.0,0.0,0.0*30
[1685299487029]$GPRMC,234441.000,V,0000.0000,N,00000.0000,E,000.0,000.0,280523,,,N*7C
[1685299487029]$GPVTG,000.0,T,,M,000.0,N,000.0,K,N*02
[1685299487029]$GPGLL,0000.0000,N,00000.0000,E,234442.000,V,N*46
[1685299487029]$GPGSA,A,1,,,,,,,,,,,,,0.0,0.0,0.0*30
[1685299487029]$GPGSV,1,1,03,15,00,000,30,23,00,000,27,10,00,000,31*4A
[1685299487962]$GPRMC,234442.000,V,0000.0000,N,00000.0000,E,000.0,000.0,280523,,,N*7F
[1685299487962]$GPVTG,000.0,T,,M,000.0,N,000.0,K,N*02
[1685299487962]$GPGLL,0000.0000,N,00000.0000,E,234443.000,V,N*47
[1685299487962]$GPGSA,A,1,,,,,,,,,,,,,0.0,0.0,0.0*30
[1685299488962]$GPRMC,234443.000,V,0000.0000,N,00000.0000,E,000.0,000.0,280523,,,N*7E
[1685299488962]$GPVTG,000.0,T,,M,000.0,N,000.0,K,N*02
[1685299488962]$GPGLL,0000.0000,N,00000.0000,E,234444.000,V,N*40
[1685299488962]$GPGSA,A,1,,,,,,,,,,,,,0.0,0.0,0.0*30
[1685299490031]$GPRMC,234444.000,V,0000.0000,N,00000.0000,E,000.0,000.0,280523,,,N*79
[1685299490031]$GPVTG,000.0,T,,M,000.0,N,000.0,K,N*02
[1685299490031]$GPGLL,0000.0000,N,00000.0000,E,234445.000,V,N*41
[1685299490031]$GPGSA,A,1,,,,,,,,,,,,,0.0,0.0,0.0*30
[1685299490031]$GPGSV,1,1,03,15,00,000,29,23,00,000,27,10,00,000,30*43
[1685299490962]$GPRMC,234445.000,V,0000.0000,N,00000.0000,E,000.0,000.0,280523,,,N*78
[1685299490962]$GPVTG,000.0,T,,M,000.0,N,000.0,K,N*02
[1685299490962]$GPGLL,0000.0000,N,00000.0000,E,234446.000,V,N*42
[1685299490962]$GPGSA,A,1,,,,,,,,,,,,,0.0,0.0,0.0*30
[1685299491963]$GPRMC,234446.000,V,0000.0000,N,00000.0000,E,000.0,000.0,280523,,,N*7B
[1685299491963]$GPVTG,000.0,T,,M,000.0,N,000.0,K,N*02
[1685299491963]$GPGLL,0000.0000,N,00000.0000,E,234447.000,V,N*43
[1685299491963]$GPGSA,A,1,,,,,,,,,,,,,0.0,0.0,0.0*30
[1685299493029]$GPRMC,234447.000,V,0000.0000,N,00000.0000,E,000.0,000.0,280523,,,N*7A
[1685299493029]$GPVTG,000.0,T,,M,000.0,N,000.0,K,N*02
[1685299493029]$GPGLL,0000.0000,N,00000.0000,E,234448.000,V,N*4C
[1685299493029]$GPGSA,A,1,,,,,,,,,,,,,0.0,0.0,0.0*30
[1685299493029]$GPGSV,1,1,03,15,00,000,28,23,00,000,27,10,00,000,30*42
[1685299493962]$GPRMC,234448.000,V,0000.0000,N,00000.0000,E,000.0,000.0,280523,,,N*75
[1685299493962]$GPVTG,000.0,T,,M,000.0,N,000.0,K,N*02
[1685299493962]$GPGLL,0000.0000,N,00000.0000,E,234449.000,V,N*4D
[1685299493962]$GPGSA,A,1,,,,,,,,,,,,,0.0,0.0,0.0*30
[1685299494962]$GPRMC,234449.000,V,0000.0000,N,00000.0000,E,000.0,000.0,280523,,,N*74
[1685299494962]$GPVTG,000.0,T,,M,000.0,N,000.0,K,N*02
[1685299494962]$GPGLL,0000.0000,N,00000.0000,E,234450.000,V,N*45
[1685299494962]$GPGSA,A,1,,,,,,,,,,,,,0.0,0.0,0.0*30
[1685299496029]$GPRMC,234450.000,V,0000.0000,N,00000.0000,E,000.0,000.0,280523,,,N*7C
[1685299496029]$GPVTG,000.0,T,,M,000.0,N,000.0,K,N*02
[1685299496029]$GPGLL,0000.0000,N,00000.0000,E,234451.000,V,N*44
[1685299496029]$GPGSA,A,1,,,,,,,,,,,,,0.0,0.0,0.0*30
[1685299496029]$GPGSV,1,1,03,15,00,000,30,23,00,000,28,10,00,000,31*45
[1685299496962]$GPRMC,234451.000,V,0000.0000,N,00000.0000,E,000.0,000.0,280523,,,N*7D
[1685299496962]$GPVTG,000.0,T,,M,000.0,N,000.0,K,N*02
[1685299496962]$GPGLL,0000.0000,N,00000.0000,E,234452.000,V,N*47
[1685299496962]$GPGSA,A,1,,,,,,,,,,,,,0.0,0.0,0.0*30
[1685299497962]$GPRMC,234452.000,V,0000.0000,N,00000.0000,E,000.0,000.0,280523,,,N*7E
[1685299497962]$GPVTG,000.0,T,,M,000.0,N,000.0,K,N*02
[1685299497962]$GPGLL,0000.0000,N,00000.0000,E,234453.000,V,N*46
[1685299497962]$GPGSA,A,1,,,,,,,,,,,,,0.0,0.0,0.0*30
[1685299499029]$GPRMC,234453.000,V,0000.0000,N,00000.0000,E,000.0,000.0,280523,,,N*7F
[1685299499029]$GPVTG,000.0,T,,M,000.0,N,000.0,K,N*02
[1685299499029]$GPGLL,0000.0000,N,00000.0000,E,234454.000,V,N*41
[1685299499029]$GPGSA,A,1,,,,,,,,,,,,,0.0,0.0,0.0*30
[1685299499029]$GPGSV,1,1,04,15,00,000,29,23,00,000,27,10,00,000,30,13,00,000,27*73
[1685299499963]$GPRMC,234454.000,V,0000.0000,N,00000.0000,E,000.0,000.0,280523,,,N*78
[1685299499963]$GPVTG,000.0,T,,M,000.0,N,000.0,K,N*02
[1685299499963]$GPGLL,0000.0000,N,00000.0000,E,234455.000,V,N*40
[1685299499963]$GPGSA,A,1,,,,,,,,,,,,,0.0,0.0,0.0*30
[1685299500962]$GPRMC,234455.000,V,0000.0000,N,00000.0000,E,000.0,000.0,280523,,,N*79
[1685299500962]$GPVTG,000.0,T,,M,000.0,N,000.0,K,N*02
[1685299500962]$GPGLL,0000.0000,N,00000.0000,E,234456.000,V,N*43
[1685299500962]$GPGSA,A,1,,,,,,,,,,,,,0.0,0.0,0.0*30
[1685299502029]$GPRMC,234456.000,V,0000.0000,N,00000.0000,E,000.0,000.0,280523,,,N*7A
[1685299502029]$GPVTG,000.0,T,,M,000.0,N,000.0,K,N*02
[1685299502029]$GPGLL,0000.0000,N,00000.0000,E,234457.000,V,N*42
[1685299502029]$GPGSA,A,1,,,,,,,,,,,,,0.0,0.0,0.0*30
[1685299502029]$GPGSV,1,1,04,15,00,000,29,23,00,000,27,10,00,000,30,13,00,000,27*73
[1685299502964]$GPRMC,234457.000,V,0000.0000,N,00000.0000,E,000.0,000.0,280523,,,N*7B
[1685299502964]$GPVTG,000.0,T,,M,000.0,N,000.0,K,N*02
[1685299502964]$GPGLL,0000.0000,N,00000.0000,E,234458.000,V,N*4D
[1685299502964]$GPGSA,A,1,,,,,,,,,,,,,0.0,0.0,0.0*30
[1685299503963]$GPRMC,234458.000,V,0000.0000,N,00000.0000,E,000.0,000.0,280523,,,N*74
[1685299503963]$GPVTG,000.0,T,,M,000.0,N,000.0,K,N*02
[1685299503963]$GPGLL,0000.0000,N,00000.0000,E,234459.000,V,N*4C
[1685299503963]$GPGSA,A,1,,,,,,,,,,,,,0.0,0.0,0.0*30
[1685299505031]$GPRMC,234459.000,V,0000.0000,N,00000.0000,E,000.0,000.0,280523,,,N*75
[1685299505031]$GPVTG,000.0,T,,M,000.0,N,000.0,K,N*02
[1685299505031]$GPGLL,0000.0000,N,00000.0000,E,234500.000,V,N*41
[1685299505031]$GPGSA,A,1,,,,,,,,,,,,,0.0,0.0,0.0*30
[1685299505031]$GPGSV,1,1,04,15,00,000,29,23,00,000,27,10,00,000,30,13,00,000,28*7C
[1685299505963]$GPRMC,234500.000,V,0000.0000,N,00000.0000,E,000.0,000.0,280523,,,N*78
[1685299505963]$GPVTG,000.0,T,,M,000.0,N,000.0,K,N*02
[1685299505963]$GPGLL,0000.0000,N,00000.0000,E,234501.000,V,N*40
[1685299505963]$GPGSA,A,1,,,,,,,,,,,,,0.0,0.0,0.0*30
[1685299506963]$GPRMC,234501.000,V,0000.0000,N,00000.0000,E,000.0,000.0,280523,,,N*79
[1685299506963]$GPVTG,000.0,T,,M,000.0,N,000.0,K,N*02
[1685299506963]$GPGLL,0000.0000,N,00000.0000,E,234502.000,V,N*43
[1685299506963]$GPGSA,A,1,,,,,,,,,,,,,0.0,0.0,0.0*30
[1685299508030]$GPRMC,234502.000,V,0000.0000,N,00000.0000,E,000.0,000.0,280523,,,N*7A
[1685299508030]$GPVTG,000.0,T,,M,000.0,N,000.0,K,N*02
[1685299508030]$GPGLL,0000.0000,N,00000.0000,E,234503.000,V,N*42
[1685299508030]$GPGSA,A,1,,,,,,,,,,,,,0.0,0.0,0.0*30
[1685299508030]$GPGSV,1,1,04,15,00,000,28,23,00,000,25,10,00,000,29,13,00,000,27*78
[1685299508963]$GPRMC,234503.000,V,0000.0000,N,00000.0000,E,000.0,000.0,280523,,,N*7B
[1685299508963]$GPVTG,000.0,T,,M,000.0,N,000.0,K,N*02
[1685299508963]$GPGLL,0000.0000,N,00000.0000,E,234504.000,V,N*45
[1685299508963]$GPGSA,A,1,,,,,,,,,,,,,0.0,0.0,0.0*30
[1685299509963]$GPRMC,234504.000,V,0000.0000,N,00000.0000,E,000.0,000.0,280523,,,N*7C
[1685299509963]$GPVTG,000.0,T,,M,000.0,N,000.0,K,N*02
[1685299509963]$GPGLL,0000.0000,N,00000.0000,E,234505.000,V,N*44
[1685299509963]$GPGSA,A,1,,,,,,,,,,,,,0.0,0.0,0.0*30
[1685299511030]$GPRMC,234505.000,V,0000.0000,N,00000.0000,E,000.0,000.0,280523,,,N*7D
[1685299511030]$GPVTG,000.0,T,,M,000.0,N,000.0,K,N*02
[1685299511030]$GPGLL,0000.0000,N,00000.0000,E,234506.000,V,N*47
[1685299511030]$GPGSA,A,1,,,,,,,,,,,,,0.0,0.0,0.0*30
[1685299511030]$GPGSV,1,1,04,15,00,000,29,23,00,000,25,10,00,000,30,13,00,000,29*7F
[1685299562955]$GPGLL,0000.0000,N,00000.0000,E,115953.000,V,N*4B
[1685299562955]$GPGSA,A,1,,,,,,,,,,,,,0.0,0.0,0.0*30
[1685299563955]$GPRMC,115953.000,V,0000.0000,N,00000.0000,E,000.0,000.0,280606,,,N*76
[1685299563955]$GPVTG,000.0,T,,M,000.0,N,000.0,K,N*02
[1685299563955]$GPGLL,0000.0000,N,00000.0000,E,115954.000,V,N*4C
[1685299563955]$GPGSA,A,1,,,,,,,,,,,,,0.0,0.0,0.0*30
[1685299564988]$GPRMC,115954.000,V,0000.0000,N,00000.0000,E,000.0,000.0,280606,,,N*71
[1685299564988]$GPVTG,000.0,T,,M,000.0,N,000.0,K,N*02
[1685299564988]$GPGLL,0000.0000,N,00000.0000,E,115955.000,V,N*4D
[1685299564988]$GPGSA,A,1,,,,,,,,,,,,,0.0,0.0,0.0*30
[1685299564988]$GPGSV,1,1,01,10,00,000,22*49
[1685299565955]$GPRMC,115955.000,V,0000.0000,N,00000.0000,E,000.0,000.0,280606,,,N*70
[1685299565955]$GPVTG,000.0,T,,M,000.0,N,000.0,K,N*02
[1685299565955]$GPGLL,0000.0000,N,00000.0000,E,115956.000,V,N*4E
[1685299565955]$GPGSA,A,1,,,,,,,,,,,,,0.0,0.0,0.0*30
[1685299566955]$GPRMC,115956.000,V,0000.0000,N,00000.0000,E,000.0,000.0,280606,,,N*73
[1685299566955]$GPVTG,000.0,T,,M,000.0,N,000.0,K,N*02
[1685299566955]$GPGLL,0000.0000,N,00000.0000,E,115957.000,V,N*4F
[1685299566955]$GPGSA,A,1,,,,,,,,,,,,,0.0,0.0,0.0*30
[1685299567988]$GPRMC,115957.000,V,0000.0000,N,00000.0000,E,000.0,000.0,280606,,,N*72
[1685299567988]$GPVTG,000.0,T,,M,000.0,N,000.0,K,N*02
[1685299567988]$GPGLL,0000.0000,N,00000.0000,E,115958.000,V,N*40
[1685299567988]$GPGSA,A,1,,,,,,,,,,,,,0.0,0.0,0.0*30
[1685299567988]$GPGSV,1,1,01,10,00,000,16*4E
[1685299568955]$GPRMC,115958.000,V,0000.0000,N,00000.0000,E,000.0,000.0,280606,,,N*7D
[1685299568955]$GPVTG,000.0,T,,M,000.0,N,000.0,K,N*02
[1685299568955]$GPGLL,0000.0000,N,00000.0000,E,115959.000,V,N*41
[1685299568955]$GPGSA,A,1,,,,,,,,,,,,,0.0,0.0,0.0*30
[1685299569955]$GPRMC,115959.000,V,0000.0000,N,00000.0000,E,000.0,000.0,280606,,,N*7C
[1685299569955]$GPVTG,000.0,T,,M,000.0,N,000.0,K,N*02
[1685299569955]$GPGLL,0000.0000,N,00000.0000,E,120000.000,V,N*42
[1685299569955]$GPGSA,A,1,,,,,,,,,,,,,0.0,0.0,0.0*30
[1685299570989]$GPRMC,120000.000,V,0000.0000,N,00000.0000,E,000.0,000.0,280606,,,N*7F
[1685299570989]$GPVTG,000.0,T,,M,000.0,N,000.0,K,N*02
[1685299570989]$GPGLL,0000.0000,N,00000.0000,E,120001.000,V,N*43
[1685299570989]$GPGSA,A,1,,,,,,,,,,,,,0.0,0.0,0.0*30
[1685299570989]$GPGSV,1,1,01,10,00,000,14*4C
[1685299571955]$GPRMC,120001.000,V,0000.0000,N,00000.0000,E,000.0,000.0,280606,,,N*7E
[1685299571955]$GPVTG,000.0,T,,M,000.0,N,000.0,K,N*02
[1685299571955]$GPGLL,0000.0000,N,00000.0000,E,120002.000,V,N*40
[1685299571955]$GPGSA,A,1,,,,,,,,,,,,,0.0,0.0,0.0*30
[1685299572954]$GPRMC,120002.000,V,0000.0000,N,00000.0000,E,000.0,000.0,280606,,,N*7D
[1685299572954]$GPVTG,000.0,T,,M,000.0,N,000.0,K,N*02
[1685299572954]$GPGLL,0000.0000,N,00000.0000,E,120003.000,V,N*41
[1685299572954]$GPGSA,A,1,,,,,,,,,,,,,0.0,0.0,0.0*30
[1685299573954]$GPRMC,120003.000,V,0000.0000,N,00000.0000,E,000.0,000.0,280606,,,N*7C
[1685299573954]$GPVTG,000.0,T,,M,000.0,N,000.0,K,N*02
[1685299573954]$GPGLL,0000.0000,N,00000.0000,E,120004.000,V,N*46
[1685299573954]$GPGSA,A,1,,,,,,,,,,,,,0.0,0.0,0.0*30
[1685299574954]$GPRMC,120004.000,V,0000.0000,N,00000.0000,E,000.0,000.0,280606,,,N*7B
[1685299574954]$GPVTG,000.0,T,,M,000.0,N,000.0,K,N*02
[1685299574954]$GPGLL,0000.0000,N,00000.0000,E,120005.000,V,N*47
[1685299574954]$GPGSA,A,1,,,,,,,,,,,,,0.0,0.0,0.0*30
[1685299575954]$GPRMC,120005.000,V,0000.0000,N,00000.0000,E,000.0,000.0,280606,,,N*7A
[1685299575954]$GPVTG,000.0,T,,M,000.0,N,000.0,K,N*02
[1685299575954]$GPGLL,0000.0000,N,00000.0000,E,120006.000,V,N*44
[1685299575954]$GPGSA,A,1,,,,,,,,,,,,,0.0,0.0,0.0*30
[1685299576954]$GPRMC,120006.000,V,0000.0000,N,00000.0000,E,000.0,000.0,280606,,,N*79
[1685299576954]$GPVTG,000.0,T,,M,000.0,N,000.0,K,N*02
[1685299576954]$GPGLL,0000.0000,N,00000.0000,E,120007.000,V,N*45
[1685299576954]$GPGSA,A,1,,,,,,,,,,,,,0.0,0.0,0.0*30
[1685299577953]$GPRMC,120007.000,V,0000.0000,N,00000.0000,E,000.0,000.0,280606,,,N*78
[1685299577953]$GPVTG,000.0,T,,M,000.0,N,000.0,K,N*02
[1685299577953]$GPGLL,0000.0000,N,00000.0000,E,120008.000,V,N*4A
[1685299577953]$GPGSA,A,1,,,,,,,,,,,,,0.0,0.0,0.0*30
[1685299578954]$GPRMC,120008.000,V,0000.0000,N,00000.0000,E,000.0,000.0,280606,,,N*77
[1685299578954]$GPVTG,000.0,T,,M,000.0,N,000.0,K,N*02
[1685299578954]$GPGLL,0000.0000,N,00000.0000,E,120009.000,V,N*4B
[1685299578954]$GPGSA,A,1,,,,,,,,,,,,,0.0,0.0,0.0*30
[1685299579953]$GPRMC,120009.000,V,0000.0000,N,00000.0000,E,000.0,000.0,280606,,,N*76
[1685299579953]$GPVTG,000.0,T,,M,000.0,N,000.0,K,N*02
[1685299579953]$GPGLL,0000.0000,N,00000.0000,E,120010.000,V,N*43
[1685299579953]$GPGSA,A,1,,,,,,,,,,,,,0.0,0.0,0.0*30
[1685299580953]$GPRMC,120010.000,V,0000.0000,N,00000.0000,E,000.0,000.0,280606,,,N*7E
[1685299580953]$GPVTG,000.0,T,,M,000.0,N,000.0,K,N*02
[1685299580953]$GPGLL,0000.0000,N,00000.0000,E,120011.000,V,N*42
[1685299580953]$GPGSA,A,1,,,,,,,,,,,,,0.0,0.0,0.0*30
[1685299581954]$GPRMC,120011.000,V,0000.0000,N,00000.0000,E,000.0,000.0,280606,,,N*7F
[1685299581954]$GPVTG,000.0,T,,M,000.0,N,000.0,K,N*02
[1685299581954]$GPGLL,0000.0000,N,00000.0000,E,120012.000,V,N*41
[1685299581954]$GPGSA,A,1,,,,,,,,,,,,,0.0,0.0,0.0*30
[1685299582954]$GPRMC,120012.000,V,0000.0000,N,00000.0000,E,000.0,000.0,280606,,,N*7C
[1685299582954]$GPVTG,000.0,T,,M,000.0,N,000.0,K,N*02
[1685299582954]$GPGLL,0000.0000,N,00000.0000,E,120013.000,V,N*40
[1685299582954]$GPGSA,A,1,,,,,,,,,,,,,0.0,0.0,0.0*30
[1685299583954]$GPRMC,120013.000,V,0000.0000,N,00000.0000,E,000.0,000.0,280606,,,N*7D
[1685299583954]$GPVTG,000.0,T,,M,000.0,N,000.0,K,N*02
[1685299583954]$GPGLL,0000.0000,N,00000.0000,E,120014.000,V,N*47
[1685299583954]$GPGSA,A,1,,,,,,,,,,,,,0.0,0.0,0.0*30
[1685299584953]$GPRMC,120014.000,V,0000.0000,N,00000.0000,E,000.0,000.0,280606,,,N*7A
[1685299584953]$GPVTG,000.0,T,,M,000.0,N,000.0,K,N*02
[1685299584953]$GPGLL,0000.0000,N,00000.0000,E,120015.000,V,N*46
[1685299584953]$GPGSA,A,1,,,,,,,,,,,,,0.0,0.0,0.0*30
[1685299585954]$GPRMC,120015.000,V,0000.0000,N,00000.0000,E,000.0,000.0,280606,,,N*7B
[1685299585954]$GPVTG,000.0,T,,M,000.0,N,000.0,K,N*02
[1685299585954]$GPGLL,0000.0000,N,00000.0000,E,120016.000,V,N*45
[1685299585954]$GPGSA,A,1,,,,,,,,,,,,,0.0,0.0,0.0*30
[1685299586954]$GPRMC,120016.000,V,0000.0000,N,00000.0000,E,000.0,000.0,280606,,,N*78
[1685299586954]$GPVTG,000.0,T,,M,000.0,N,000.0,K,N*02
[1685299586954]$GPGLL,0000.0000,N,00000.0000,E,120017.000,V,N*44
[1685299586954]$GPGSA,A,1,,,,,,,,,,,,,0.0,0.0,0.0*30
[1685299587954]$GPRMC,120017.000,V,0000.0000,N,00000.0000,E,000.0,000.0,280606,,,N*79
[1685299587954]$GPVTG,000.0,T,,M,000.0,N,000.0,K,N*02
[1685299587954]$GPGLL,0000.0000,N,00000.0000,E,120018.000,V,N*4B
[1685299587954]$GPGSA,A,1,,,,,,,,,,,,,0.0,0.0,0.0*30
[1685299588954]$GPRMC,120018.000,V,0000.0000,N,00000.0000,E,000.0,000.0,280606,,,N*76
[1685299588954]$GPVTG,000.0,T,,M,000.0,N,000.0,K,N*02
[1685299588954]$GPGLL,0000.0000,N,00000.0000,E,120019.000,V,N*4A
[1685299588954]$GPGSA,A,1,,,,,,,,,,,,,0.0,0.0,0.0*30
[1685299589954]$GPRMC,120019.000,V,0000.0000,N,00000.0000,E,000.0,000.0,280606,,,N*77
[1685299589954]$GPVTG,000.0,T,,M,000.0,N,000.0,K,N*02
[1685299589954]$GPGLL,0000.0000,N,00000.0000,E,120020.000,V,N*40
[1685299589954]$GPGSA,A,1,,,,,,,,,,,,,0.0,0.0,0.0*30
[1685299590954]$GPRMC,120020.000,V,0000.0000,N,00000.0000,E,000.0,000.0,280606,,,N*7D
[1685299590954]$GPVTG,000.0,T,,M,000.0,N,000.0,K,N*02
[1685299590954]$GPGLL,0000.0000,N,00000.0000,E,120021.000,V,N*41
[1685299590954]$GPGSA,A,1,,,,,,,,,,,,,0.0,0.0,0.0*30
[1685299591953]$GPRMC,120021.000,V,0000.0000,N,00000.0000,E,000.0,000.0,280606,,,N*7C
[1685299591953]$GPVTG,000.0,T,,M,000.0,N,000.0,K,N*02
[1685299591953]$GPGLL,0000.0000,N,00000.0000,E,120022.000,V,N*42
[1685299591953]$GPGSA,A,1,,,,,,,,,,,,,0.0,0.0,0.0*30
[1685299592954]$GPRMC,120022.000,V,0000.0000,N,00000.0000,E,000.0,000.0,280606,,,N*7F
[1685299592954]$GPVTG,000.0,T,,M,000.0,N,000.0,K,N*02
[1685299592954]$GPGLL,0000.0000,N,00000.0000,E,120023.000,V,N*43
[1685299592954]$GPGSA,A,1,,,,,,,,,,,,,0.0,0.0,0.0*30
[1685299593954]$GPRMC,120023.000,V,0000.0000,N,00000.0000,E,000.0,000.0,280606,,,N*7E
[1685299593954]$GPVTG,000.0,T,,M,000.0,N,000.0,K,N*02
[1685299593954]$GPGLL,0000.0000,N,00000.0000,E,120024.000,V,N*44
[1685299593954]$GPGSA,A,1,,,,,,,,,,,,,0.0,0.0,0.0*30
[1685299594954]$GPRMC,120024.000,V,0000.0000,N,00000.0000,E,000.0,000.0,280606,,,N*79
[1685299594954]$GPVTG,000.0,T,,M,000.0,N,000.0,K,N*02
[1685299594954]$GPGLL,0000.0000,N,00000.0000,E,120025.000,V,N*45
[1685299594954]$GPGSA,A,1,,,,,,,,,,,,,0.0,0.0,0.0*30
[1685299595954]$GPRMC,120025.000,V,0000.0000,N,00000.0000,E,000.0,000.0,280606,,,N*78
[1685299595954]$GPVTG,000.0,T,,M,000.0,N,000.0,K,N*02
[1685299595954]$GPGLL,0000.0000,N,00000.0000,E,120026.000,V,N*46
[1685299595954]$GPGSA,A,1,,,,,,,,,,,,,0.0,0.0,0.0*30
[1685299596953]$GPRMC,120026.000,V,0000.0000,N,00000.0000,E,000.0,000.0,280606,,,N*7B
[1685299596953]$GPVTG,000.0,T,,M,000.0,N,000.0,K,N*02
[1685299596953]$GPGLL,0000.0000,N,00000.0000,E,120027.000,V,N*47
[1685299596953]$GPGSA,A,1,,,,,,,,,,,,,0.0,0.0,0.0*30
[1685299597953]$GPRMC,120027.000,V,0000.0000,N,00000.0000,E,000.0,000.0,280606,,,N*7A
[1685299597953]$GPVTG,000.0,T,,M,000.0,N,000.0,K,N*02
[1685299597953]$GPGLL,0000.0000,N,00000.0000,E,120028.000,V,N*48
[1685299597953]$GPGSA,A,1,,,,,,,,,,,,,0.0,0.0,0.0*30
[1685299598954]$GPRMC,120028.000,V,0000.0000,N,00000.0000,E,000.0,000.0,280606,,,N*75
[1685299598954]$GPVTG,000.0,T,,M,000.0,N,000.0,K,N*02
[1685299598954]$GPGLL,0000.0000,N,00000.0000,E,120029.000,V,N*49
[1685299598954]$GPGSA,A,1,,,,,,,,,,,,,0.0,0.0,0.0*30
[1685299599954]$GPRMC,120029.000,V,0000.0000,N,00000.0000,E,000.0,000.0,280606,,,N*74
[1685299599954]$GPVTG,000.0,T,,M,000.0,N,000.0,K,N*02
[1685299599954]$GPGLL,0000.0000,N,00000.0000,E,120030.000,V,N*41
[1685299599954]$GPGSA,A,1,,,,,,,,,,,,,0.0,0.0,0.0*30
[1685299600954]$GPRMC,120030.000,V,0000.0000,N,00000.0000,E,000.0,000.0,280606,,,N*7C
[1685299600954]$GPVTG,000.0,T,,M,000.0,N,000.0,K,N*02
[1685299600954]$GPGLL,0000.0000,N,00000.0000,E,120031.000,V,N*40
[1685299600954]$GPGSA,A,1,,,,,,,,,,,,,0.0,0.0,0.0*30
[1685299601954]$GPRMC,120031.000,V,0000.0000,N,00000.0000,E,000.0,000.0,280606,,,N*7D
[1685299601954]$GPVTG,000.0,T,,M,000.0,N,000.0,K,N*02
[1685299601954]$GPGLL,0000.0000,N,00000.0000,E,120032.000,V,N*43
[1685299601954]$GPGSA,A,1,,,,,,,,,,,,,0.0,0.0,0.0*30
[1685299602954]$GPRMC,120032.000,V,0000.0000,N,00000.0000,E,000.0,000.0,280606,,,N*7E
[1685299602954]$GPVTG,000.0,T,,M,000.0,N,000.0,K,N*02
[1685299602954]$GPGLL,0000.0000,N,00000.0000,E,120033.000,V,N*42
[1685299602954]$GPGSA,A,1,,,,,,,,,,,,,0.0,0.0,0.0*30
[1685299603954]$GPRMC,120033.000,V,0000.0000,N,00000.0000,E,000.0,000.0,280606,,,N*7F
[1685299603954]$GPVTG,000.0,T,,M,000.0,N,000.0,K,N*02
[1685299603954]$GPGLL,0000.0000,N,00000.0000,E,120034.000,V,N*45
[1685299603954]$GPGSA,A,1,,,,,,,,,,,,,0.0,0.0,0.0*30
[1685299604954]$GPRMC,120034.000,V,0000.0000,N,00000.0000,E,000.0,000.0,280606,,,N*78
[1685299604954]$GPVTG,000.0,T,,M,000.0,N,000.0,K,N*02
[1685299604954]$GPGLL,0000.0000,N,00000.0000,E,120035.000,V,N*44
[1685299604954]$GPGSA,A,1,,,,,,,,,,,,,0.0,0.0,0.0*30
[1685299605954]$GPRMC,120035.000,V,0000.0000,N,00000.0000,E,000.0,000.0,280606,,,N*79
[1685299605954]$GPVTG,000.0,T,,M,000.0,N,000.0,K,N*02
[1685299605954]$GPGLL,0000.0000,N,00000.0000,E,120036.000,V,N*47
[1685299605954]$GPGSA,A,1,,,,,,,,,,,,,0.0,0.0,0.0*30
[1685299606954]$GPRMC,120036.000,V,0000.0000,N,00000.0000,E,000.0,000.0,280606,,,N*7A
[1685299606954]$GPVTG,000.0,T,,M,000.0,N,000.0,K,N*02
[1685299606954]$GPGLL,0000.0000,N,00000.0000,E,120037.000,V,N*46
[1685299606954]$GPGSA,A,1,,,,,,,,,,,,,0.0,0.0,0.0*30
[1685299607955]$GPRMC,120037.000,V,0000.0000,N,00000.0000,E,000.0,000.0,280606,,,N*7B
[1685299607955]$GPVTG,000.0,T,,M,000.0,N,000.0,K,N*02
[1685299607955]$GPGLL,0000.0000,N,00000.0000,E,120038.000,V,N*49
[1685299607955]$GPGSA,A,1,,,,,,,,,,,,,0.0,0.0,0.0*30
[1685299608955]$GPRMC,120038.000,V,0000.0000,N,00000.0000,E,000.0,000.0,280606,,,N*74
[1685299608955]$GPVTG,000.0,T,,M,000.0,N,000.0,K,N*02
[1685299608955]$GPGLL,0000.0000,N,00000.0000,E,120039.000,V,N*48
[1685299608955]$GPGSA,A,1,,,,,,,,,,,,,0.0,0.0,0.0*30
[1685299609988]$GPRMC,120039.000,V,0000.0000,N,00000.0000,E,000.0,000.0,280606,,,N*75
[1685299609988]$GPVTG,000.0,T,,M,000.0,N,000.0,K,N*02
[1685299609988]$GPGLL,0000.0000,N,00000.0000,E,120040.000,V,N*46
[1685299609988]$GPGSA,A,1,,,,,,,,,,,,,0.0,0.0,0.0*30
[1685299609988]$GPGSV,1,1,01,10,00,000,27*4C
[1685299610955]$GPRMC,120040.000,V,0000.0000,N,00000.0000,E,000.0,000.0,280606,,,N*7B
[1685299610955]$GPVTG,000.0,T,,M,000.0,N,000.0,K,N*02
[1685299610955]$GPGLL,0000.0000,N,00000.0000,E,120041.000,V,N*47
[1685299610955]$GPGSA,A,1,,,,,,,,,,,,,0.0,0.0,0.0*30
[1685299611955]$GPRMC,120041.000,V,0000.0000,N,00000.0000,E,000.0,000.0,280606,,,N*7A
[1685299611955]$GPVTG,000.0,T,,M,000.0,N,000.0,K,N*02
[1685299611955]$GPGLL,0000.0000,N,00000.0000,E,120042.000,V,N*44
[1685299611955]$GPGSA,A,1,,,,,,,,,,,,,0.0,0.0,0.0*30
[1685299612989]$GPRMC,120042.000,V,0000.0000,N,00000.0000,E,000.0,000.0,280606,,,N*79
[1685299612989]$GPVTG,000.0,T,,M,000.0,N,000.0,K,N*02
[1685299612989]$GPGLL,0000.0000,N,00000.0000,E,120043.000,V,N*45
[1685299612989]$GPGSA,A,1,,,,,,,,,,,,,0.0,0.0,0.0*30
[1685299612989]$GPGSV,1,1,02,10,00,000,28,15,00,000,29*7F
[1685299613955]$GPRMC,120043.000,V,0000.0000,N,00000.0000,E,000.0,000.0,280606,,,N*78
[1685299613955]$GPVTG,000.0,T,,M,000.0,N,000.0,K,N*02
[1685299613955]$GPGLL,0000.0000,N,00000.0000,E,120044.000,V,N*42
[1685299613955]$GPGSA,A,1,,,,,,,,,,,,,0.0,0.0,0.0*30
[1685299614957]$GPRMC,120044.000,V,0000.0000,N,00000.0000,E,000.0,000.0,280606,,,N*7F
[1685299614957]$GPVTG,000.0,T,,M,000.0,N,000.0,K,N*02
[1685299614957]$GPGLL,0000.0000,N,00000.0000,E,234650.000,V,N*47
[1685299614957]$GPGSA,A,1,,,,,,,,,,,,,0.0,0.0,0.0*30
[1685299615991]$GPRMC,234650.000,V,0000.0000,N,00000.0000,E,000.0,000.0,280523,,,N*7E
[1685299615991]$GPVTG,000.0,T,,M,000.0,N,000.0,K,N*02
[1685299615991]$GPGLL,0000.0000,N,00000.0000,E,234651.000,V,N*46
[1685299615991]$GPGSA,A,1,,,,,,,,,,,,,0.0,0.0,0.0*30
[1685299615991]$GPGSV,1,1,02,10,00,000,29,15,00,000,29*7E
[1685299616957]$GPRMC,234651.000,V,0000.0000,N,00000.0000,E,000.0,000.0,280523,,,N*7F
[1685299616957]$GPVTG,000.0,T,,M,000.0,N,000.0,K,N*02
[1685299616957]$GPGLL,0000.0000,N,00000.0000,E,234652.000,V,N*45
[1685299616957]$GPGSA,A,1,,,,,,,,,,,,,0.0,0.0,0.0*30
[1685299617957]$GPRMC,234652.000,V,0000.0000,N,00000.0000,E,000.0,000.0,280523,,,N*7C
[1685299617957]$GPVTG,000.0,T,,M,000.0,N,000.0,K,N*02
[1685299617957]$GPGLL,0000.0000,N,00000.0000,E,234653.000,V,N*44
[1685299617957]$GPGSA,A,1,,,,,,,,,,,,,0.0,0.0,0.0*30
[1685299618990]$GPRMC,234653.000,V,0000.0000,N,00000.0000,E,000.0,000.0,280523,,,N*7D
[1685299618990]$GPVTG,000.0,T,,M,000.0,N,000.0,K,N*02
[1685299618990]$GPGLL,0000.0000,N,00000.0000,E,234654.000,V,N*43
[1685299618990]$GPGSA,A,1,,,,,,,,,,,,,0.0,0.0,0.0*30
[1685299618990]$GPGSV,1,1,02,10,00,000,31,15,00,000,27*79
[1685299619957]$GPRMC,234654.000,V,0000.0000,N,00000.0000,E,000.0,000.0,280523,,,N*7A
[1685299619957]$GPVTG,000.0,T,,M,000.0,N,000.0,K,N*02
[1685299619957]$GPGLL,0000.0000,N,00000.0000,E,234655.000,V,N*42
[1685299619957]$GPGSA,A,1,,,,,,,,,,,,,0.0,0.0,0.0*30
[1685299620957]$GPRMC,234655.000,V,0000.0000,N,00000.0000,E,000.0,000.0,280523,,,N*7B
[1685299620957]$GPVTG,000.0,T,,M,000.0,N,000.0,K,N*02
[1685299620957]$GPGLL,0000.0000,N,00000.0000,E,234656.000,V,N*41
[1685299620957]$GPGSA,A,1,,,,,,,,,,,,,0.0,0.0,0.0*30
[1685299621991]$GPRMC,234656.000,V,0000.0000,N,00000.0000,E,000.0,000.0,280523,,,N*78
[1685299621991]$GPVTG,000.0,T,,M,000.0,N,000.0,K,N*02
[1685299621991]$GPGLL,0000.0000,N,00000.0000,E,234657.000,V,N*40
[1685299621991]$GPGSA,A,1,,,,,,,,,,,,,0.0,0.0,0.0*30
[1685299621991]$GPGSV,1,1,02,10,00,000,30,15,00,000,25*7A
[1685299622957]$GPRMC,234657.000,V,0000.0000,N,00000.0000,E,000.0,000.0,280523,,,N*79
[1685299622957]$GPVTG,000.0,T,,M,000.0,N,000.0,K,N*02
[1685299622957]$GPGLL,0000.0000,N,00000.0000,E,234658.000,V,N*4F
[1685299622957]$GPGSA,A,1,,,,,,,,,,,,,0.0,0.0,0.0*30
[1685299623957]$GPRMC,234658.000,V,0000.0000,N,00000.0000,E,000.0,000.0,280523,,,N*76
[1685299623957]$GPVTG,000.0,T,,M,000.0,N,000.0,K,N*02
[1685299623957]$GPGLL,0000.0000,N,00000.0000,E,234659.000,V,N*4E
[1685299623957]$GPGSA,A,1,,,,,,,,,,,,,0.0,0.0,0.0*30
[1685299624991]$GPRMC,234659.000,V,0000.0000,N,00000.0000,E,000.0,000.0,280523,,,N*77
[1685299624991]$GPVTG,000.0,T,,M,000.0,N,000.0,K,N*02
[1685299624991]$GPGLL,0000.0000,N,00000.0000,E,234700.000,V,N*43
[1685299624991]$GPGSA,A,1,,,,,,,,,,,,,0.0,0.0,0.0*30
[1685299624991]$GPGSV,1,1,02,10,00,000,29,15,00,000,25*72
[1685299625958]$GPRMC,234700.000,V,0000.0000,N,00000.0000,E,000.0,000.0,280523,,,N*7A
[1685299625958]$GPVTG,000.0,T,,M,000.0,N,000.0,K,N*02
[1685299625958]$GPGLL,0000.0000,N,00000.0000,E,234701.000,V,N*42
[1685299625958]$GPGSA,A,1,,,,,,,,,,,,,0.0,0.0,0.0*30
[1685299626958]$GPRMC,234701.000,V,0000.0000,N,00000.0000,E,000.0,000.0,280523,,,N*7B
[1685299626958]$GPVTG,000.0,T,,M,000.0,N,000.0,K,N*02
[1685299626958]$GPGLL,0000.0000,N,00000.0000,E,234702.000,V,N*41
[1685299626958]$GPGSA,A,1,,,,,,,,,,,,,0.0,0.0,0.0*30
[1685299627991]$GPRMC,234702.000,V,0000.0000,N,00000.0000,E,000.0,000.0,280523,,,N*78
[1685299627991]$GPVTG,000.0,T,,M,000.0,N,000.0,K,N*02
